{	
	'id': '1',
	'name': 'Tel aviv',
	'location':	{
		lat: '32.085160',
		long: '34.780957'
	}
}
{	
	'id': '2',
	'name': 'Ramat yeshay',
	'location':	{
		lat: '32.703956',
		long: '35.167129'
	}
}
{	
	'id': '3',
	'name': 'Hedera',
	'location':	{
		lat: '32.434985',
		long: '34.921118'
	}
}
{	
	'id': '4',
	'name': 'Ashdod',
	'location':	{
		lat: '31.808254',
		long: '34.653969'
	}
}
{	
	'id': '5',
	'name': 'Rishon le zion',
	'location':	{
		lat: '31.973243',
		long: '34.798661'
	}
}
{	
	'id': '6',
	'name': 'nes ziona',
	'location':	{
		lat: '31.932479',
		long: '34.801161'
	}
}
{	
	'id': '7',
	'name': 'Eilat',
	'location':	{
		lat: '29.558643',
		long: '34.948586'
	}
}
